{"class":"VERSION","release":"3.25","rev":"3.25","proto_major":3,"proto_minor":15}
{"class":"DEVICES","devices":[{"class":"DEVICE","path":"/dev/dtmux/0/ubl0","activated":"2025-04-07T10:36:58.805Z","native":0,"bps":38400,"parity":"N","stopbits":1,"cycle":1.00}]}
{"class":"WATCH","enable":true,"json":true,"nmea":false,"raw":0,"scaled":false,"timing":false,"split24":false,"pps":false}
{"class":"DEVICE","path":"/dev/dtmux/0/ubl0","driver":"u-blox","activated":"2025-04-07T10:37:19.631Z","native":1,"bps":38400,"parity":"N","stopbits":1,"cycle":1.00,"mincycle":0.02}
{"class":"TPV","device":"/dev/dtmux/0/ubl0","mode":3,"time":"2025-04-07T10:37:20.000Z","ept":0.005,"lat":52.341913900,"lon":11.477318100,"altHAE":265.4160,"altMSL":220.9210,"alt":220.9210,"epv":1092.100,"track":0.0000,"magtrack":3.4864,"magvar":3.5,"speed":0.575,"eps":12.60,"geoidSep":43.030,"eph":400.355,"sep":169.290}
{"class":"SKY","device":"/dev/dtmux/0/ubl0","gdop":10.58,"hdop":3.89,"pdop":8.91,"tdop":5.71,"vdop":8.02}
{"class":"SKY","device":"/dev/dtmux/0/ubl0","hdop":0.86,"uSat":12}
{"class":"SKY","device":"/dev/dtmux/0/ubl0","hdop":0.86,"pdop":1.87,"vdop":1.66,"uSat":12}
{"class":"SKY","device":"/dev/dtmux/0/ubl0","hdop":0.86,"pdop":1.87,"vdop":1.66,"uSat":12}
{"class":"SKY","device":"/dev/dtmux/0/ubl0","hdop":0.86,"pdop":1.87,"vdop":1.66,"uSat":12}
{"class":"SKY","device":"/dev/dtmux/0/ubl0","gdop":10.22,"hdop":0.86,"pdop":1.87,"tdop":5.11,"xdop":2.13,"ydop":2.84,"vdop":1.66,"nSat":11,"uSat":5,"satellites":[{"PRN":5,"gnssid":0,"svid":5,"az":69.0,"el":28.0,"ss":30.0,"used":true},{"PRN":16,"gnssid":0,"svid":16,"az":300.0,"el":32.0,"ss":26.0,"used":false},{"PRN":18,"gnssid":0,"svid":18,"az":171.0,"el":60.0,"ss":29.0,"used":false},{"PRN":20,"gnssid":0,"svid":20,"az":34.0,"el":15.0,"ss":25.0,"used":false},{"PRN":23,"gnssid":0,"svid":23,"az":153.0,"el":3.0,"ss":20.0,"used":false},{"PRN":25,"gnssid":0,"svid":25,"az":134.0,"el":18.0,"ss":29.0,"used":true},{"PRN":26,"gnssid":0,"svid":26,"az":286.0,"el":59.0,"ss":29.0,"used":true},{"PRN":27,"gnssid":0,"svid":27,"az":263.0,"el":4.0,"ss":40.0,"used":false},{"PRN":28,"gnssid":0,"svid":28,"az":210.0,"el":25.0,"ss":39.0,"used":true},{"PRN":29,"gnssid":0,"svid":29,"az":74.0,"el":53.0,"ss":24.0,"used":false},{"PRN":31,"gnssid":0,"svid":31,"az":235.0,"el":39.0,"ss":32.0,"used":true}]}
{"class":"SKY","device":"/dev/dtmux/0/ubl0","gdop":10.22,"hdop":0.86,"pdop":1.87,"tdop":5.11,"xdop":2.13,"ydop":2.84,"vdop":1.66,"nSat":13,"uSat":5,"satellites":[{"PRN":5,"gnssid":0,"svid":5,"az":69.0,"el":28.0,"ss":30.0,"used":true},{"PRN":16,"gnssid":0,"svid":16,"az":300.0,"el":32.0,"ss":26.0,"used":false},{"PRN":18,"gnssid":0,"svid":18,"az":171.0,"el":60.0,"ss":29.0,"used":false},{"PRN":20,"gnssid":0,"svid":20,"az":34.0,"el":15.0,"ss":25.0,"used":false},{"PRN":23,"gnssid":0,"svid":23,"az":153.0,"el":3.0,"ss":20.0,"used":false},{"PRN":25,"gnssid":0,"svid":25,"az":134.0,"el":18.0,"ss":29.0,"used":true},{"PRN":26,"gnssid":0,"svid":26,"az":286.0,"el":59.0,"ss":29.0,"used":true},{"PRN":27,"gnssid":0,"svid":27,"az":263.0,"el":4.0,"ss":40.0,"used":false},{"PRN":28,"gnssid":0,"svid":28,"az":210.0,"el":25.0,"ss":39.0,"used":true},{"PRN":29,"gnssid":0,"svid":29,"az":74.0,"el":53.0,"ss":24.0,"used":false},{"PRN":31,"gnssid":0,"svid":31,"az":235.0,"el":39.0,"ss":32.0,"used":true},{"PRN":4,"gnssid":0,"svid":4,"az":306.0,"el":5.0,"ss":0.0,"used":false},{"PRN":9,"gnssid":0,"svid":9,"az":335.0,"el":5.0,"ss":0.0,"used":false}]}
{"class":"SKY","device":"/dev/dtmux/0/ubl0","gdop":10.22,"hdop":0.86,"pdop":1.87,"tdop":5.11,"xdop":2.13,"ydop":2.84,"vdop":1.66,"nSat":18,"uSat":7,"satellites":[{"PRN":5,"gnssid":0,"svid":5,"az":69.0,"el":28.0,"ss":30.0,"used":true},{"PRN":16,"gnssid":0,"svid":16,"az":300.0,"el":32.0,"ss":26.0,"used":false},{"PRN":18,"gnssid":0,"svid":18,"az":171.0,"el":60.0,"ss":29.0,"used":false},{"PRN":20,"gnssid":0,"svid":20,"az":34.0,"el":15.0,"ss":25.0,"used":false},{"PRN":23,"gnssid":0,"svid":23,"az":153.0,"el":3.0,"ss":20.0,"used":false},{"PRN":25,"gnssid":0,"svid":25,"az":134.0,"el":18.0,"ss":29.0,"used":true},{"PRN":26,"gnssid":0,"svid":26,"az":286.0,"el":59.0,"ss":29.0,"used":true},{"PRN":27,"gnssid":0,"svid":27,"az":263.0,"el":4.0,"ss":40.0,"used":false},{"PRN":28,"gnssid":0,"svid":28,"az":210.0,"el":25.0,"ss":39.0,"used":true},{"PRN":29,"gnssid":0,"svid":29,"az":74.0,"el":53.0,"ss":24.0,"used":false},{"PRN":31,"gnssid":0,"svid":31,"az":235.0,"el":39.0,"ss":32.0,"used":true},{"PRN":4,"gnssid":0,"svid":4,"az":306.0,"el":5.0,"ss":0.0,"used":false},{"PRN":9,"gnssid":0,"svid":9,"az":335.0,"el":5.0,"ss":0.0,"used":false},{"PRN":65,"gnssid":6,"svid":1,"az":54.0,"el":10.0,"ss":21.0,"used":false},{"PRN":79,"gnssid":6,"svid":15,"az":163.0,"el":49.0,"ss":24.0,"used":false},{"PRN":80,"gnssid":6,"svid":16,"az":301.0,"el":67.0,"ss":32.0,"used":true},{"PRN":82,"gnssid":6,"svid":18,"az":226.0,"el":57.0,"ss":29.0,"used":true},{"PRN":88,"gnssid":6,"svid":24,"az":45.0,"el":15.0,"ss":26.0,"used":false}]}
{"class":"SKY","device":"/dev/dtmux/0/ubl0","gdop":10.22,"hdop":0.86,"pdop":1.87,"tdop":5.11,"xdop":2.13,"ydop":2.84,"vdop":1.66,"nSat":24,"uSat":7,"satellites":[{"PRN":5,"gnssid":0,"svid":5,"az":69.0,"el":28.0,"ss":30.0,"used":true},{"PRN":16,"gnssid":0,"svid":16,"az":300.0,"el":32.0,"ss":26.0,"used":false},{"PRN":18,"gnssid":0,"svid":18,"az":171.0,"el":60.0,"ss":29.0,"used":false},{"PRN":20,"gnssid":0,"svid":20,"az":34.0,"el":15.0,"ss":25.0,"used":false},{"PRN":23,"gnssid":0,"svid":23,"az":153.0,"el":3.0,"ss":20.0,"used":false},{"PRN":25,"gnssid":0,"svid":25,"az":134.0,"el":18.0,"ss":29.0,"used":true},{"PRN":26,"gnssid":0,"svid":26,"az":286.0,"el":59.0,"ss":29.0,"used":true},{"PRN":27,"gnssid":0,"svid":27,"az":263.0,"el":4.0,"ss":40.0,"used":false},{"PRN":28,"gnssid":0,"svid":28,"az":210.0,"el":25.0,"ss":39.0,"used":true},{"PRN":29,"gnssid":0,"svid":29,"az":74.0,"el":53.0,"ss":24.0,"used":false},{"PRN":31,"gnssid":0,"svid":31,"az":235.0,"el":39.0,"ss":32.0,"used":true},{"PRN":4,"gnssid":0,"svid":4,"az":306.0,"el":5.0,"ss":0.0,"used":false},{"PRN":9,"gnssid":0,"svid":9,"az":335.0,"el":5.0,"ss":0.0,"used":false},{"PRN":65,"gnssid":6,"svid":1,"az":54.0,"el":10.0,"ss":21.0,"used":false},{"PRN":79,"gnssid":6,"svid":15,"az":163.0,"el":49.0,"ss":24.0,"used":false},{"PRN":80,"gnssid":6,"svid":16,"az":301.0,"el":67.0,"ss":32.0,"used":true},{"PRN":82,"gnssid":6,"svid":18,"az":226.0,"el":57.0,"ss":29.0,"used":true},{"PRN":88,"gnssid":6,"svid":24,"az":45.0,"el":15.0,"ss":26.0,"used":false},{"PRN":71,"gnssid":6,"svid":7,"az":317.0,"el":0.0,"ss":0.0,"used":false},{"PRN":72,"gnssid":6,"svid":8,"az":1.0,"el":13.0,"ss":0.0,"used":false},{"PRN":73,"gnssid":6,"svid":9,"az":324.0,"el":14.0,"ss":0.0,"used":false},{"PRN":78,"gnssid":6,"svid":14,"az":151.0,"el":1.0,"ss":0.0,"used":false},{"PRN":78,"gnssid":6,"svid":14,"az":151.0,"el":1.0,"ss":0.0,"used":false},{"PRN":81,"gnssid":6,"svid":17,"az":41.0,"el":70.0,"ss":0.0,"used":false}]}
{"class":"SKY","device":"/dev/dtmux/0/ubl0","gdop":10.22,"hdop":0.86,"pdop":1.87,"tdop":5.11,"xdop":2.13,"ydop":2.84,"vdop":1.66,"nSat":32,"uSat":11,"satellites":[{"PRN":5,"gnssid":0,"svid":5,"az":69.0,"el":28.0,"ss":30.0,"used":true},{"PRN":16,"gnssid":0,"svid":16,"az":300.0,"el":32.0,"ss":26.0,"used":false},{"PRN":18,"gnssid":0,"svid":18,"az":171.0,"el":60.0,"ss":29.0,"used":false},{"PRN":20,"gnssid":0,"svid":20,"az":34.0,"el":15.0,"ss":25.0,"used":false},{"PRN":23,"gnssid":0,"svid":23,"az":153.0,"el":3.0,"ss":20.0,"used":false},{"PRN":25,"gnssid":0,"svid":25,"az":134.0,"el":18.0,"ss":29.0,"used":true},{"PRN":26,"gnssid":0,"svid":26,"az":286.0,"el":59.0,"ss":29.0,"used":true},{"PRN":27,"gnssid":0,"svid":27,"az":263.0,"el":4.0,"ss":40.0,"used":false},{"PRN":28,"gnssid":0,"svid":28,"az":210.0,"el":25.0,"ss":39.0,"used":true},{"PRN":29,"gnssid":0,"svid":29,"az":74.0,"el":53.0,"ss":24.0,"used":false},{"PRN":31,"gnssid":0,"svid":31,"az":235.0,"el":39.0,"ss":32.0,"used":true},{"PRN":4,"gnssid":0,"svid":4,"az":306.0,"el":5.0,"ss":0.0,"used":false},{"PRN":9,"gnssid":0,"svid":9,"az":335.0,"el":5.0,"ss":0.0,"used":false},{"PRN":65,"gnssid":6,"svid":1,"az":54.0,"el":10.0,"ss":21.0,"used":false},{"PRN":79,"gnssid":6,"svid":15,"az":163.0,"el":49.0,"ss":24.0,"used":false},{"PRN":80,"gnssid":6,"svid":16,"az":301.0,"el":67.0,"ss":32.0,"used":true},{"PRN":82,"gnssid":6,"svid":18,"az":226.0,"el":57.0,"ss":29.0,"used":true},{"PRN":88,"gnssid":6,"svid":24,"az":45.0,"el":15.0,"ss":26.0,"used":false},{"PRN":71,"gnssid":6,"svid":7,"az":317.0,"el":0.0,"ss":0.0,"used":false},{"PRN":72,"gnssid":6,"svid":8,"az":1.0,"el":13.0,"ss":0.0,"used":false},{"PRN":73,"gnssid":6,"svid":9,"az":324.0,"el":14.0,"ss":0.0,"used":false},{"PRN":78,"gnssid":6,"svid":14,"az":151.0,"el":1.0,"ss":0.0,"used":false},{"PRN":78,"gnssid":6,"svid":14,"az":151.0,"el":1.0,"ss":0.0,"used":false},{"PRN":81,"gnssid":6,"svid":17,"az":41.0,"el":70.0,"ss":0.0,"used":false},{"PRN":305,"gnssid":2,"svid":5,"az":341.0,"el":7.0,"ss":22.0,"used":false},{"PRN":306,"gnssid":2,"svid":6,"az":271.0,"el":2.0,"ss":27.0,"used":false},{"PRN":313,"gnssid":2,"svid":13,"az":57.0,"el":45.0,"ss":31.0,"used":true},{"PRN":318,"gnssid":2,"svid":18,"az":255.0,"el":33.0,"ss":31.0,"used":false},{"PRN":321,"gnssid":2,"svid":21,"az":130.0,"el":37.0,"ss":27.0,"used":true},{"PRN":326,"gnssid":2,"svid":26,"az":158.0,"el":62.0,"ss":30.0,"used":true},{"PRN":331,"gnssid":2,"svid":31,"az":300.0,"el":33.0,"ss":25.0,"used":false},{"PRN":333,"gnssid":2,"svid":33,"az":199.0,"el":20.0,"ss":38.0,"used":true}]}
{"class":"SKY","device":"/dev/dtmux/0/ubl0","gdop":10.22,"hdop":0.86,"pdop":1.87,"tdop":5.11,"xdop":2.13,"ydop":2.84,"vdop":1.66,"nSat":34,"uSat":11,"satellites":[{"PRN":5,"gnssid":0,"svid":5,"az":69.0,"el":28.0,"ss":30.0,"used":true},{"PRN":16,"gnssid":0,"svid":16,"az":300.0,"el":32.0,"ss":26.0,"used":false},{"PRN":18,"gnssid":0,"svid":18,"az":171.0,"el":60.0,"ss":29.0,"used":false},{"PRN":20,"gnssid":0,"svid":20,"az":34.0,"el":15.0,"ss":25.0,"used":false},{"PRN":23,"gnssid":0,"svid":23,"az":153.0,"el":3.0,"ss":20.0,"used":false},{"PRN":25,"gnssid":0,"svid":25,"az":134.0,"el":18.0,"ss":29.0,"used":true},{"PRN":26,"gnssid":0,"svid":26,"az":286.0,"el":59.0,"ss":29.0,"used":true},{"PRN":27,"gnssid":0,"svid":27,"az":263.0,"el":4.0,"ss":40.0,"used":false},{"PRN":28,"gnssid":0,"svid":28,"az":210.0,"el":25.0,"ss":39.0,"used":true},{"PRN":29,"gnssid":0,"svid":29,"az":74.0,"el":53.0,"ss":24.0,"used":false},{"PRN":31,"gnssid":0,"svid":31,"az":235.0,"el":39.0,"ss":32.0,"used":true},{"PRN":4,"gnssid":0,"svid":4,"az":306.0,"el":5.0,"ss":0.0,"used":false},{"PRN":9,"gnssid":0,"svid":9,"az":335.0,"el":5.0,"ss":0.0,"used":false},{"PRN":65,"gnssid":6,"svid":1,"az":54.0,"el":10.0,"ss":21.0,"used":false},{"PRN":79,"gnssid":6,"svid":15,"az":163.0,"el":49.0,"ss":24.0,"used":false},{"PRN":80,"gnssid":6,"svid":16,"az":301.0,"el":67.0,"ss":32.0,"used":true},{"PRN":82,"gnssid":6,"svid":18,"az":226.0,"el":57.0,"ss":29.0,"used":true},{"PRN":88,"gnssid":6,"svid":24,"az":45.0,"el":15.0,"ss":26.0,"used":false},{"PRN":71,"gnssid":6,"svid":7,"az":317.0,"el":0.0,"ss":0.0,"used":false},{"PRN":72,"gnssid":6,"svid":8,"az":1.0,"el":13.0,"ss":0.0,"used":false},{"PRN":73,"gnssid":6,"svid":9,"az":324.0,"el":14.0,"ss":0.0,"used":false},{"PRN":78,"gnssid":6,"svid":14,"az":151.0,"el":1.0,"ss":0.0,"used":false},{"PRN":78,"gnssid":6,"svid":14,"az":151.0,"el":1.0,"ss":0.0,"used":false},{"PRN":81,"gnssid":6,"svid":17,"az":41.0,"el":70.0,"ss":0.0,"used":false},{"PRN":305,"gnssid":2,"svid":5,"az":341.0,"el":7.0,"ss":22.0,"used":false},{"PRN":306,"gnssid":2,"svid":6,"az":271.0,"el":2.0,"ss":27.0,"used":false},{"PRN":313,"gnssid":2,"svid":13,"az":57.0,"el":45.0,"ss":31.0,"used":true},{"PRN":318,"gnssid":2,"svid":18,"az":255.0,"el":33.0,"ss":31.0,"used":false},{"PRN":321,"gnssid":2,"svid":21,"az":130.0,"el":37.0,"ss":27.0,"used":true},{"PRN":326,"gnssid":2,"svid":26,"az":158.0,"el":62.0,"ss":30.0,"used":true},{"PRN":331,"gnssid":2,"svid":31,"az":300.0,"el":33.0,"ss":25.0,"used":false},{"PRN":333,"gnssid":2,"svid":33,"az":199.0,"el":20.0,"ss":38.0,"used":true},{"PRN":309,"gnssid":2,"svid":9,"az":292.0,"el":7.0,"ss":0.0,"used":false},{"PRN":323,"gnssid":2,"svid":23,"az":232.0,"el":83.0,"ss":0.0,"used":false}]}
{"class":"SKY","device":"/dev/dtmux/0/ubl0","gdop":10.22,"hdop":0.86,"pdop":1.87,"tdop":5.11,"xdop":2.13,"ydop":2.84,"vdop":1.66,"nSat":42,"uSat":11,"satellites":[{"PRN":5,"gnssid":0,"svid":5,"az":69.0,"el":28.0,"ss":30.0,"used":true},{"PRN":16,"gnssid":0,"svid":16,"az":300.0,"el":32.0,"ss":26.0,"used":false},{"PRN":18,"gnssid":0,"svid":18,"az":171.0,"el":60.0,"ss":29.0,"used":false},{"PRN":20,"gnssid":0,"svid":20,"az":34.0,"el":15.0,"ss":25.0,"used":false},{"PRN":23,"gnssid":0,"svid":23,"az":153.0,"el":3.0,"ss":20.0,"used":false},{"PRN":25,"gnssid":0,"svid":25,"az":134.0,"el":18.0,"ss":29.0,"used":true},{"PRN":26,"gnssid":0,"svid":26,"az":286.0,"el":59.0,"ss":29.0,"used":true},{"PRN":27,"gnssid":0,"svid":27,"az":263.0,"el":4.0,"ss":40.0,"used":false},{"PRN":28,"gnssid":0,"svid":28,"az":210.0,"el":25.0,"ss":39.0,"used":true},{"PRN":29,"gnssid":0,"svid":29,"az":74.0,"el":53.0,"ss":24.0,"used":false},{"PRN":31,"gnssid":0,"svid":31,"az":235.0,"el":39.0,"ss":32.0,"used":true},{"PRN":4,"gnssid":0,"svid":4,"az":306.0,"el":5.0,"ss":0.0,"used":false},{"PRN":9,"gnssid":0,"svid":9,"az":335.0,"el":5.0,"ss":0.0,"used":false},{"PRN":65,"gnssid":6,"svid":1,"az":54.0,"el":10.0,"ss":21.0,"used":false},{"PRN":79,"gnssid":6,"svid":15,"az":163.0,"el":49.0,"ss":24.0,"used":false},{"PRN":80,"gnssid":6,"svid":16,"az":301.0,"el":67.0,"ss":32.0,"used":true},{"PRN":82,"gnssid":6,"svid":18,"az":226.0,"el":57.0,"ss":29.0,"used":true},{"PRN":88,"gnssid":6,"svid":24,"az":45.0,"el":15.0,"ss":26.0,"used":false},{"PRN":71,"gnssid":6,"svid":7,"az":317.0,"el":0.0,"ss":0.0,"used":false},{"PRN":72,"gnssid":6,"svid":8,"az":1.0,"el":13.0,"ss":0.0,"used":false},{"PRN":73,"gnssid":6,"svid":9,"az":324.0,"el":14.0,"ss":0.0,"used":false},{"PRN":78,"gnssid":6,"svid":14,"az":151.0,"el":1.0,"ss":0.0,"used":false},{"PRN":78,"gnssid":6,"svid":14,"az":151.0,"el":1.0,"ss":0.0,"used":false},{"PRN":81,"gnssid":6,"svid":17,"az":41.0,"el":70.0,"ss":0.0,"used":false},{"PRN":305,"gnssid":2,"svid":5,"az":341.0,"el":7.0,"ss":22.0,"used":false},{"PRN":306,"gnssid":2,"svid":6,"az":271.0,"el":2.0,"ss":27.0,"used":false},{"PRN":313,"gnssid":2,"svid":13,"az":57.0,"el":45.0,"ss":31.0,"used":true},{"PRN":318,"gnssid":2,"svid":18,"az":255.0,"el":33.0,"ss":31.0,"used":false},{"PRN":321,"gnssid":2,"svid":21,"az":130.0,"el":37.0,"ss":27.0,"used":true},{"PRN":326,"gnssid":2,"svid":26,"az":158.0,"el":62.0,"ss":30.0,"used":true},{"PRN":331,"gnssid":2,"svid":31,"az":300.0,"el":33.0,"ss":25.0,"used":false},{"PRN":333,"gnssid":2,"svid":33,"az":199.0,"el":20.0,"ss":38.0,"used":true},{"PRN":309,"gnssid":2,"svid":9,"az":292.0,"el":7.0,"ss":0.0,"used":false},{"PRN":323,"gnssid":2,"svid":23,"az":232.0,"el":83.0,"ss":0.0,"used":false},{"PRN":427,"gnssid":3,"svid":27,"az":175.0,"el":83.0,"ss":0.0,"used":false},{"PRN":428,"gnssid":3,"svid":28,"az":64.0,"el":44.0,"ss":0.0,"used":false},{"PRN":430,"gnssid":3,"svid":30,"az":236.0,"el":33.0,"ss":0.0,"used":false},{"PRN":433,"gnssid":3,"svid":33,"az":73.0,"el":8.0,"ss":0.0,"used":false},{"PRN":433,"gnssid":3,"svid":33,"az":73.0,"el":8.0,"ss":0.0,"used":false},{"PRN":436,"gnssid":3,"svid":36,"az":302.0,"el":39.0,"ss":0.0,"used":false},{"PRN":437,"gnssid":3,"svid":37,"az":163.0,"el":19.0,"ss":0.0,"used":false},{"PRN":438,"gnssid":3,"svid":38,"az":48.0,"el":30.0,"ss":0.0,"used":false}]}
{"class":"TPV","device":"/dev/dtmux/0/ubl0","mode":3,"time":"2025-04-07T10:37:21.000Z","ept":0.005,"lat":52.342386833,"lon":11.477105167,"altHAE":106.3000,"altMSL":61.8000,"alt":61.8000,"epx":31.880,"epy":42.525,"epv":38.180,"magvar":3.5,"speed":0.014,"climb":-159.178,"epd":75.8370,"epc":1130.72,"geoidSep":44.500,"eph":16.340,"sep":35.530}
{"class":"SKY","device":"/dev/dtmux/0/ubl0","gdop":2.19,"hdop":0.86,"pdop":1.87,"tdop":1.15,"xdop":2.13,"ydop":2.84,"vdop":1.66,"uSat":12}
{"class":"SKY","device":"/dev/dtmux/0/ubl0","hdop":0.62,"uSat":12}
{"class":"TPV","device":"/dev/dtmux/0/ubl0","mode":3,"time":"2025-04-07T10:37:22.000Z","leapseconds":18,"ept":0.005,"lat":52.342391167,"lon":11.477095333,"altHAE":105.9000,"altMSL":61.4000,"alt":61.4000,"magvar":3.5,"speed":0.029,"climb":-0.400,"geoidSep":44.500,"eph":11.780}
{"class":"SKY","device":"/dev/dtmux/0/ubl0","gdop":1.20,"hdop":0.55,"pdop":1.06,"tdop":0.58,"vdop":0.90,"uSat":12}
{"class":"TPV","device":"/dev/dtmux/0/ubl0","mode":0,"time":"2025-04-07T10:37:23.000Z","leapseconds":18,"ept":0.005}
{"class":"TPV","device":"/dev/dtmux/0/ubl0","mode":1,"time":"2025-04-07T10:37:38.500Z","leapseconds":18,"ept":0.005}
{"class":"TPV","device":"/dev/dtmux/0/ubl0","mode":1,"time":"2025-04-07T10:37:39.000Z","leapseconds":18,"ept":0.005}
{"class":"SKY","device":"/dev/dtmux/0/ubl0","gdop":3.33,"hdop":1.60,"pdop":2.98,"tdop":1.50,"vdop":2.51,"uSat":12}
{"class":"TPV","device":"/dev/dtmux/0/ubl0","mode":3,"time":"2025-04-07T10:37:39.500Z","leapseconds":18,"ept":0.005,"lat":52.342396500,"lon":11.477169900,"altHAE":157.2170,"altMSL":112.7220,"alt":112.7220,"epv":225.030,"track":130.1518,"magtrack":133.6382,"magvar":3.5,"speed":0.578,"eps":1.59,"geoidSep":43.029,"eph":124.334,"sep":56.620}
{"class":"SKY","device":"/dev/dtmux/0/ubl0","gdop":3.33,"hdop":1.60,"pdop":2.98,"tdop":1.50,"vdop":2.51,"uSat":12}
{"class":"TPV","device":"/dev/dtmux/0/ubl0","mode":3,"time":"2025-04-07T10:37:40.000Z","leapseconds":18,"ept":0.005,"lat":52.342390800,"lon":11.477153300,"altHAE":151.6080,"altMSL":107.1130,"alt":107.1130,"epv":94.170,"track":130.1518,"magtrack":133.6382,"magvar":3.5,"speed":0.161,"climb":-11.218,"eps":0.22,"epc":638.40,"geoidSep":43.029,"eph":64.494,"sep":56.620}
{"class":"SKY","device":"/dev/dtmux/0/ubl0","gdop":1.53,"hdop":0.82,"pdop":1.35,"tdop":0.71,"vdop":1.07,"uSat":12}
{"class":"TPV","device":"/dev/dtmux/0/ubl0","mode":3,"time":"2025-04-07T10:37:41.000Z","leapseconds":18,"ept":0.005,"lat":52.342374600,"lon":11.476959300,"altHAE":117.7760,"altMSL":73.2810,"alt":73.2810,"epv":44.138,"track":130.1518,"magtrack":133.6382,"magvar":3.5,"speed":0.112,"climb":-33.832,"eps":0.50,"epc":138.31,"geoidSep":43.029,"eph":29.858,"sep":25.650}
{"class":"SKY","device":"/dev/dtmux/0/ubl0","gdop":1.49,"hdop":0.77,"pdop":1.31,"tdop":0.71,"vdop":1.07,"uSat":12}
{"class":"TPV","device":"/dev/dtmux/0/ubl0","mode":3,"time":"2025-04-07T10:37:42.000Z","leapseconds":18,"ept":0.005,"lat":52.342349600,"lon":11.476856400,"altHAE":124.0750,"altMSL":79.5800,"alt":79.5800,"epv":28.781,"track":130.1518,"magtrack":133.6381,"magvar":3.5,"speed":0.084,"climb":6.299,"eps":0.35,"epc":72.92,"geoidSep":43.029,"eph":20.593,"sep":24.890}
{"class":"SKY","device":"/dev/dtmux/0/ubl0","gdop":1.49,"hdop":0.77,"pdop":1.31,"tdop":0.71,"vdop":1.07,"uSat":12}
{"class":"TPV","device":"/dev/dtmux/0/ubl0","mode":3,"time":"2025-04-07T10:37:43.000Z","leapseconds":18,"ept":0.005,"lat":52.342356600,"lon":11.476854100,"altHAE":124.8860,"altMSL":80.3910,"alt":80.3910,"epv":25.031,"track":132.2971,"magtrack":135.7834,"magvar":3.5,"speed":0.226,"climb":0.811,"eps":0.39,"epc":53.81,"geoidSep":43.029,"eph":18.508,"sep":24.890}
{"class":"SKY","device":"/dev/dtmux/0/ubl0","gdop":1.49,"hdop":0.77,"pdop":1.31,"tdop":0.71,"vdop":1.06,"uSat":12}
{"class":"TPV","device":"/dev/dtmux/0/ubl0","mode":3,"time":"2025-04-07T10:37:44.000Z","leapseconds":18,"ept":0.005,"lat":52.342360800,"lon":11.476870500,"altHAE":125.6520,"altMSL":81.1580,"alt":81.1580,"epv":21.871,"track":132.2971,"magtrack":135.7834,"magvar":3.5,"speed":0.197,"climb":0.766,"eps":0.34,"epc":46.90,"geoidSep":43.029,"eph":16.487,"sep":24.890}
